city_id,City,Country,Lat,Lng,Max Temp,Humidity,Cloudiness,Wind Speed,Current Description
0,Hilo,US,19.7297,-155.09,78.53,79,75,13.8,broken clouds
1,Puerto Ayora,EC,-0.7393,-90.3518,80.56,88,38,5.01,scattered clouds
2,Airai,TL,-8.9266,125.4092,58.33,87,61,1.19,broken clouds
3,Bengkulu,ID,-3.8004,102.2655,78.49,89,100,5.21,light rain
4,Rikitea,PF,-23.1203,-134.9692,76.8,72,3,16.22,clear sky
5,Hithadhoo,MV,-0.6,73.0833,83.62,76,99,16.69,overcast clouds
6,Neiafu,TO,-18.65,-173.9833,77.68,73,75,8.05,broken clouds
7,Dudinka,RU,69.4058,86.1778,5.05,99,47,3.53,scattered clouds
8,Roma,US,43.2128,-75.4557,75.34,23,0,10.36,clear sky
9,Opuwo,NA,-18.0607,13.84,68.02,30,0,7.23,clear sky
10,Pevek,RU,69.7008,170.3133,29.12,85,100,5.95,overcast clouds
11,Teahupoo,PF,-17.8333,-149.2667,78.76,72,19,17.38,few clouds
12,Sioux Lookout,CA,50.1001,-91.917,62.67,48,20,13.8,few clouds
13,Butaritari,KI,3.0707,172.7902,80.83,72,39,17.16,scattered clouds
14,Mitsamiouli,KM,-11.3847,43.2844,80.37,67,1,7.05,clear sky
15,Khatanga,RU,71.9667,102.5,20.73,98,100,3.2,overcast clouds
16,Ushuaia,AR,-54.8,-68.3,44.26,70,20,5.75,few clouds
17,West Lafayette,US,40.4259,-86.9081,88.21,61,40,8.05,scattered clouds
18,Dikson,RU,73.5069,80.5464,25.7,93,100,27.45,light snow
19,Yellowknife,CA,62.456,-114.3525,32.56,74,100,8.05,light snow
20,Mataura,NZ,-46.1927,168.8643,36.97,97,18,2.73,few clouds
21,Thompson,CA,55.7435,-97.8558,62.76,42,100,8.05,overcast clouds
22,Touros,BR,-5.1989,-35.4608,76.93,86,100,5.41,overcast clouds
23,Kutulik,RU,53.3508,102.7839,32.76,51,61,5.59,broken clouds
24,Robertsport,LR,6.7533,-11.3686,81.93,82,99,11.25,overcast clouds
25,Georgetown,MY,5.4112,100.3354,83.95,93,20,3.44,thunderstorm
26,Alghero,IT,40.5589,8.3181,60.89,88,0,1.14,clear sky
27,Tuktoyaktuk,CA,69.4541,-133.0374,26.6,93,100,14.97,overcast clouds
28,Lloydminster,CA,53.2835,-110.0016,46.62,46,75,17.27,broken clouds
29,Richmond Hill,CA,43.8711,-79.4372,73.38,22,81,9.51,broken clouds
30,Nikolskoye,RU,59.7035,30.7861,53.49,68,91,4.7,overcast clouds
31,Castro,BR,-24.7911,-50.0119,66.33,77,52,3.49,broken clouds
32,Poum,NC,-20.2333,164.0167,75.58,72,99,15.55,overcast clouds
33,Saint-Philippe,RE,-21.3585,55.7679,72.99,81,12,7.7,few clouds
34,Bandhi,PK,26.5861,68.3006,87.67,52,0,13.04,clear sky
35,Cape Town,ZA,-33.9258,18.4232,62.11,90,75,13.8,light rain
36,Havoysund,NO,70.9963,24.6622,35.83,94,100,16.82,overcast clouds
37,Pachino,IT,36.7186,15.0907,61.0,75,0,4.05,clear sky
38,Hasaki,JP,35.7333,140.8333,50.4,81,100,12.26,overcast clouds
39,Chuy,UY,-33.6971,-53.4616,63.05,84,100,4.92,overcast clouds
40,Bani Walid,LY,31.7566,13.9942,62.2,71,100,12.55,overcast clouds
41,Camopi,GF,3.1655,-52.3158,77.2,96,66,3.42,light rain
42,Saint-Ambroise,CA,48.5501,-71.3324,80.92,27,5,8.52,clear sky
43,Kimbe,PG,-5.5502,150.1429,76.14,93,100,3.11,overcast clouds
44,Arraial Do Cabo,BR,-22.9661,-42.0278,75.06,73,75,6.91,broken clouds
45,Severobaykalsk,RU,55.65,109.3167,25.5,76,3,6.04,clear sky
46,Virginia Beach,US,36.8529,-75.978,61.05,71,100,21.85,overcast clouds
47,Beringovskiy,RU,63.05,179.3167,36.61,88,99,7.96,overcast clouds
48,Vikulovo,RU,56.8167,70.6107,56.93,36,100,13.65,overcast clouds
49,Jamestown,US,42.097,-79.2353,76.64,13,0,5.75,clear sky
50,Aswan,EG,24.0934,32.907,87.94,14,84,20.13,broken clouds
51,Key Biscayne,US,25.6937,-80.1628,85.01,55,40,14.97,scattered clouds
52,Punta Arenas,CL,-53.15,-70.9167,46.51,61,75,14.97,broken clouds
53,Vila Velha,BR,-20.3297,-40.2925,76.95,73,40,12.66,scattered clouds
54,Fort Frances,CA,48.5999,-93.4003,71.17,36,0,8.05,clear sky
55,Saint Anthony,US,45.0205,-93.218,78.85,25,0,10.36,clear sky
56,New Norfolk,AU,-42.7826,147.0587,45.72,89,1,3.51,clear sky
57,Taoudenni,ML,22.6783,-3.9836,94.03,7,4,7.85,clear sky
58,Buraydah,SA,26.326,43.975,84.65,14,15,7.61,few clouds
59,Namatanai,PG,-3.6667,152.4333,80.69,78,77,11.18,broken clouds
60,Fortuna,US,40.5982,-124.1573,56.93,63,40,12.66,scattered clouds
61,Atuona,PF,-9.8,-139.0333,79.12,66,88,20.36,overcast clouds
62,Klaksvik,FO,62.2266,-6.589,47.32,85,91,9.37,overcast clouds
63,Carnarvon,AU,-24.8667,113.6333,71.67,94,97,5.75,overcast clouds
64,Saldanha,ZA,-33.0117,17.9442,59.05,94,48,8.55,light rain
65,Caala,AO,-12.8525,15.5606,59.74,60,50,2.75,scattered clouds
66,Hermanus,ZA,-34.4187,19.2345,62.8,81,95,19.37,overcast clouds
67,Ponta Do Sol,PT,32.6667,-17.1,73.13,43,68,9.42,light rain
68,Haines Junction,CA,60.7522,-137.5108,31.95,80,100,17.27,overcast clouds
69,Porto Santo,PT,33.072,-16.3415,66.58,77,20,18.41,few clouds
70,Narrabri,AU,-30.3167,149.7833,57.52,89,100,1.99,moderate rain
71,Port Elizabeth,ZA,-33.918,25.5701,66.31,54,0,4.0,clear sky
72,Palu,ID,-0.8917,119.8707,77.09,88,100,2.89,moderate rain
73,Santa Isabel,BR,-23.3156,-46.2214,74.16,74,42,2.08,scattered clouds
74,Taganak,PH,6.0833,118.3,77.14,81,100,4.92,overcast clouds
75,Busselton,AU,-33.65,115.3333,59.34,85,79,2.17,broken clouds
76,Constitucion,CL,-35.3333,-72.4167,62.19,59,100,11.3,overcast clouds
77,Iqaluit,CA,63.7506,-68.5145,33.53,86,100,18.41,overcast clouds
78,Spassk,RU,52.747,87.7545,36.39,36,0,12.59,clear sky
79,Port Alfred,ZA,-33.5906,26.891,68.04,54,100,11.25,overcast clouds
80,Riberalta,BO,-10.9833,-66.1,82.6,74,75,18.41,broken clouds
81,Hualmay,PE,-11.0964,-77.6139,68.81,73,10,8.72,clear sky
82,Elizabethton,US,36.3487,-82.2107,84.63,37,0,4.61,haze
83,Buchmany,UA,51.0689,28.0421,47.21,60,100,4.76,overcast clouds
84,Manicore,BR,-5.8092,-61.3003,89.55,62,96,4.61,overcast clouds
85,Bulata,PH,9.8599,122.4016,80.51,82,98,5.32,overcast clouds
86,Kashira,RU,54.8444,38.1669,44.28,81,100,17.02,light rain
87,Udachnyy,RU,66.4167,112.4,19.67,94,91,6.02,overcast clouds
88,Kiyasovo,RU,56.3491,53.1244,50.41,91,100,11.74,overcast clouds
89,Kruisfontein,ZA,-34.0033,24.7314,62.11,42,73,7.34,broken clouds
90,Mar Del Plata,AR,-38.0023,-57.5575,55.42,77,100,8.99,light rain
91,Noshiro,JP,40.2039,140.0242,52.02,61,100,6.02,overcast clouds
92,Marquette,US,46.5333,-87.6335,72.84,92,100,1.72,overcast clouds
93,Kodiak,US,57.79,-152.4072,44.11,42,0,27.63,clear sky
94,Bredasdorp,ZA,-34.5322,20.0403,62.65,63,49,16.6,scattered clouds
95,Kavaratti,IN,10.5669,72.642,85.06,68,100,19.3,overcast clouds
96,Port Blair,IN,11.6667,92.75,80.64,89,75,2.3,mist
97,Bluff,NZ,-46.6,168.3333,45.9,85,12,11.68,few clouds
98,Hobart,AU,-42.8794,147.3294,46.06,86,0,5.75,clear sky
99,Luderitz,NA,-26.6481,15.1594,57.87,70,31,9.1,scattered clouds
100,Livingston,GB,55.9029,-3.5226,52.21,81,40,8.05,scattered clouds
101,Hidalgotitlan,MX,17.7833,-94.6333,84.22,25,16,18.77,few clouds
102,Menongue,AO,-14.6585,17.691,59.2,46,1,3.53,clear sky
103,Shepsi,RU,44.0361,39.1489,51.91,85,23,8.21,few clouds
104,Singaraja,ID,-8.112,115.0882,80.35,84,92,2.86,overcast clouds
105,Faanui,PF,-16.4833,-151.75,81.64,75,18,15.32,light rain
106,Chakwal,PK,32.9334,72.8585,86.23,21,4,1.79,clear sky
107,Kawambwa,ZM,-9.7915,29.0791,61.12,59,2,4.34,clear sky
108,Broken Hill,AU,-31.95,141.4333,53.31,94,100,16.11,moderate rain
109,Olafsvik,IS,64.8945,-23.7142,36.01,87,100,27.47,overcast clouds
110,Vaini,TO,-21.2,-175.2,77.16,73,40,4.61,scattered clouds
111,Kaitangata,NZ,-46.2817,169.8464,40.55,90,12,7.83,few clouds
112,Port Hardy,CA,50.6996,-127.4199,48.38,87,75,9.22,light intensity shower rain
113,Bousso,TD,10.4795,16.7117,94.55,31,69,4.18,broken clouds
114,Kapaa,US,22.0752,-159.319,79.12,80,100,14.97,overcast clouds
115,Nanortalik,GL,60.1432,-45.2371,36.64,86,73,8.9,broken clouds
116,Avarua,CK,-21.2078,-159.775,82.45,83,75,1.14,broken clouds
117,Tacuarembo,UY,-31.7333,-55.9833,61.83,86,92,2.53,overcast clouds
118,East London,ZA,-33.0153,27.9116,65.73,57,100,7.94,overcast clouds
119,Barrow,US,71.2906,-156.7887,24.82,80,100,9.22,overcast clouds
120,Albany,US,42.6001,-73.9662,75.87,25,0,1.01,clear sky
121,San Patricio,US,28.017,-97.5169,92.12,51,57,19.46,broken clouds
122,Los Llanos De Aridane,ES,28.6585,-17.9182,68.13,70,75,3.44,broken clouds
123,Matamoros,MX,25.5333,-103.25,96.91,9,40,10.36,scattered clouds
124,Chokurdakh,RU,70.6333,147.9167,15.35,95,100,10.11,overcast clouds
125,Puerto Leguizamo,CO,-0.1934,-74.7819,82.0,86,34,2.91,scattered clouds
126,Urumqi,CN,43.801,87.6005,63.55,24,0,4.47,clear sky
127,Kaabong,UG,3.4836,34.1492,69.3,59,16,6.08,few clouds
128,Westport,US,41.1415,-73.3579,74.32,42,5,5.99,clear sky
129,Pochutla,MX,15.7432,-96.4661,91.81,46,62,10.22,broken clouds
130,Thohoyandou,ZA,-22.9456,30.485,62.62,67,0,1.74,clear sky
131,Iskateley,RU,67.6803,53.1512,36.88,79,99,17.56,overcast clouds
132,Boende,CD,-0.2167,20.8667,73.15,96,100,2.37,light rain
133,Qaanaaq,GL,77.484,-69.3632,20.86,67,2,1.5,clear sky
134,Saint-Pierre,RE,-21.3393,55.4781,73.08,73,0,8.05,clear sky
135,Karratha,AU,-20.7377,116.8463,72.18,28,63,10.94,broken clouds
136,Baganga,PH,7.5739,126.56,77.68,87,100,5.23,overcast clouds
137,Ermioni,GR,37.3869,23.2442,58.93,59,46,2.24,scattered clouds
138,Tiksi,RU,71.6872,128.8694,21.67,86,77,20.31,broken clouds
139,Saskylakh,RU,71.9167,114.0833,12.29,96,100,1.86,overcast clouds
140,Isangel,VU,-19.55,169.2667,75.18,75,9,15.95,clear sky
141,Kabrai,IN,25.4167,80.0167,93.6,27,0,8.7,clear sky
142,Barcelos,PT,41.5388,-8.6151,62.85,77,50,3.8,scattered clouds
143,Rudbar,AF,30.15,62.6,83.28,17,0,12.35,clear sky
144,Ornskoldsvik,SE,63.2909,18.7153,43.75,93,100,4.61,overcast clouds
145,Souillac,MU,-20.5167,57.5167,73.78,94,20,3.44,few clouds
146,Odesskoye,RU,54.2111,72.9651,57.85,31,100,16.67,overcast clouds
147,Gaogou,CN,34.0175,119.1886,56.16,94,92,5.48,overcast clouds
148,Sinop,TR,41.7711,34.8709,46.51,66,0,4.9,clear sky
149,Lethem,GY,3.3803,-59.7968,88.95,52,66,10.69,broken clouds
150,Bethel,US,41.3712,-73.414,73.63,33,20,12.66,few clouds
151,Sosnovskoye,RU,55.8052,43.167,43.59,95,100,17.65,moderate rain
152,Bor,RU,56.3567,44.0669,46.33,91,100,17.02,light rain
153,Lorengau,PG,-2.0226,147.2712,82.27,78,100,9.53,overcast clouds
154,Creel,MX,27.75,-107.6333,78.8,17,7,15.97,clear sky
155,Yar-Sale,RU,66.8333,70.8333,14.54,99,81,5.86,broken clouds
156,Avera,US,33.194,-82.5271,82.54,26,0,11.21,clear sky
157,Springdale,US,36.1867,-94.1288,85.5,78,100,17.27,overcast clouds
158,Tura,IN,25.5198,90.2201,70.3,98,58,5.28,broken clouds
159,Lavrentiya,RU,65.5833,-171.0,31.32,99,100,8.34,overcast clouds
160,Oranjemund,NA,-28.55,16.4333,53.96,84,74,2.3,broken clouds
161,Jambalo,CO,2.7923,-76.3226,63.72,84,80,0.87,broken clouds
162,Mahebourg,MU,-20.4081,57.7,76.24,94,20,3.44,few clouds
163,Puerto Narino,CO,-3.7703,-70.3831,84.04,79,52,2.71,broken clouds
164,Kedrovyy,RU,56.1667,91.8167,21.61,52,0,3.36,clear sky
165,Utica,US,43.1009,-75.2327,75.31,47,0,9.78,clear sky
166,Karpathos,GR,35.507,27.2132,62.56,82,0,8.05,clear sky
167,Auki,SB,-8.7676,160.7034,79.07,86,100,4.81,overcast clouds
168,Norman Wells,CA,65.282,-126.8329,46.44,31,75,8.05,broken clouds
169,Natchez,US,31.5604,-91.4032,94.44,38,0,3.44,clear sky
170,Dakoro,NE,14.5106,6.765,93.02,23,97,8.72,overcast clouds
171,Ternate,ID,0.8,127.4,80.62,84,100,8.21,overcast clouds
172,Gazanjyk,TM,39.2446,55.5154,67.78,39,94,6.96,overcast clouds
173,Harrisonville,US,38.6533,-94.3488,87.98,55,75,16.11,broken clouds
174,Atambua,ID,-9.1061,124.8925,70.61,84,48,3.56,scattered clouds
175,Ribeira Brava,PT,32.65,-17.0667,73.13,43,71,10.89,light rain
176,La Mesa,US,32.7678,-117.0231,75.04,50,0,12.66,clear sky
177,Chicama,PE,-7.8447,-79.1469,63.14,63,7,10.29,clear sky
178,Nemuro,JP,43.3236,145.575,42.42,70,0,3.06,clear sky
179,Aripuana,BR,-9.1667,-60.6333,85.96,63,94,1.74,overcast clouds
180,Camacupa,AO,-12.0167,17.4833,62.28,52,8,4.32,clear sky
181,Berlevag,NO,70.8578,29.0864,35.55,93,100,13.8,overcast clouds
182,Huaiyuan,CN,32.973,117.1995,55.67,94,53,5.23,broken clouds
183,Evensk,RU,61.95,159.2333,32.34,100,100,13.6,light snow
184,Tromso,NO,69.6496,18.957,38.37,93,75,10.36,broken clouds
185,Nhulunbuy,AU,-12.2333,136.7667,77.61,94,100,0.0,overcast clouds
186,Tual,ID,-5.6667,132.75,84.27,75,98,12.06,overcast clouds
187,Upernavik,GL,72.7868,-56.1549,28.6,76,100,11.63,overcast clouds
188,Cherskiy,RU,68.75,161.3,20.53,88,25,8.46,scattered clouds
189,Okhotsk,RU,59.3833,143.3,31.86,99,100,10.13,snow
190,Gobabis,NA,-22.45,18.9667,64.22,23,0,9.98,clear sky
191,Provideniya,RU,64.3833,-173.3,33.06,97,100,5.77,overcast clouds
192,Raudeberg,NO,61.9875,5.1352,48.96,84,55,26.42,broken clouds
193,La Ronge,CA,55.1001,-105.2842,55.65,30,75,17.27,broken clouds
194,Rocha,UY,-34.4833,-54.3333,62.67,87,100,6.6,overcast clouds
195,Batagay-Alyta,RU,67.8006,130.4114,6.21,83,100,4.14,overcast clouds
196,Itarema,BR,-2.9248,-39.9167,76.68,88,100,8.5,overcast clouds
197,Inhambane,MZ,-23.865,35.3833,67.33,86,0,6.46,clear sky
198,Deputatskiy,RU,69.3,139.9,1.4,93,16,4.7,few clouds
199,Birao,CF,10.2849,22.7882,92.28,16,95,2.66,overcast clouds
200,Bellevue,US,47.6104,-122.2007,59.43,57,75,11.5,broken clouds
201,Guerrero Negro,MX,27.9769,-114.0611,68.13,53,0,20.45,clear sky
202,Safaga,EG,26.7292,33.9365,80.64,33,0,7.87,clear sky
203,Saint-Gabriel,CA,46.3001,-73.3824,74.41,32,28,7.56,scattered clouds
204,Farrukhnagar,IN,17.0778,78.2011,83.91,49,100,5.99,overcast clouds
205,Pervomayskiy,RU,53.2485,40.2871,37.4,97,100,11.18,light rain
206,Sao Jose Da Coroa Grande,BR,-8.8978,-35.1478,78.84,78,99,5.99,overcast clouds
207,Ribeira Grande,PT,38.5167,-28.7,66.6,77,75,8.05,broken clouds
208,Tilichiki,RU,60.4667,166.1,30.47,99,100,0.25,overcast clouds
209,Priladozhskiy,RU,59.85,31.4833,42.53,1,89,5.64,overcast clouds
210,Manta,EC,-0.95,-80.7333,76.78,78,100,12.66,overcast clouds
211,Saint George,US,37.1041,-113.5841,71.8,9,0,10.36,clear sky
212,Puerto Escondido,MX,15.85,-97.0667,88.63,62,40,5.75,scattered clouds
213,Ayan,RU,56.45,138.1667,32.79,95,100,5.64,overcast clouds
214,Yumen,CN,40.2833,97.2,59.2,29,6,10.27,clear sky
215,Sheridan,US,44.8333,-106.9173,65.32,21,0,11.5,clear sky
216,Ilulissat,GL,69.2167,-51.1,26.62,63,40,10.36,scattered clouds
217,Vao,NC,-22.6667,167.4833,73.06,68,49,20.67,scattered clouds
218,Santa Rosa,PH,14.3122,121.1114,83.08,74,94,7.05,overcast clouds
219,Kenai,US,60.5544,-151.2583,49.03,33,0,23.02,clear sky
220,Katangli,RU,51.7102,143.2326,29.89,95,59,8.97,broken clouds
221,Sembe,CG,1.6481,14.5806,76.05,84,39,3.33,scattered clouds
222,Carahue,CL,-38.7,-73.1667,60.73,42,53,3.02,broken clouds
223,Victoria,HK,22.2855,114.1577,80.33,94,100,3.0,heavy intensity rain
224,Pinillos,CO,8.9193,-74.4677,80.89,82,100,2.15,overcast clouds
225,Greenville,US,35.6127,-77.3663,68.16,54,100,14.97,overcast clouds
226,Lebu,CL,-37.6167,-73.65,54.93,65,100,11.68,overcast clouds
227,Soyo,AO,-6.1349,12.3689,78.03,89,56,7.47,broken clouds
228,Tazovskiy,RU,67.4667,78.7,12.97,97,11,4.63,few clouds
229,Jambi,ID,-1.6,103.6167,72.66,97,100,6.13,moderate rain
230,Yangjiang,CN,21.85,111.9667,74.41,94,39,2.82,heavy intensity rain
231,Macouria,GF,4.9167,-52.3667,82.98,7,75,9.22,broken clouds
232,Suntar,RU,62.1444,117.6319,26.56,95,30,3.62,scattered clouds
233,Praia,CV,14.9215,-23.5087,75.74,69,0,13.8,clear sky
234,Bethanien,NA,-26.502,17.1583,61.75,22,100,5.91,overcast clouds
235,Bongued,PH,7.1167,124.4,74.97,98,100,2.19,overcast clouds
236,Salinas,US,36.6777,-121.6555,61.99,47,0,12.66,clear sky
237,Srandakan,ID,-7.9386,110.2506,78.53,91,65,3.98,broken clouds
238,Broome,US,42.2506,-75.833,75.79,25,0,5.75,clear sky
239,Sao Filipe,CV,14.8961,-24.4956,72.5,83,12,8.95,few clouds
240,Mirnyy,RU,62.5353,113.9611,33.24,47,75,7.0,broken clouds
241,Manubul,PH,5.4732,120.7986,82.15,79,100,11.01,overcast clouds
242,Kismayo,SO,-0.3582,42.5454,81.28,82,17,13.0,few clouds
243,Luwuk,ID,-0.9516,122.7875,77.52,86,100,2.26,light rain
244,Riachao,BR,-7.3619,-46.6172,81.77,57,95,3.42,overcast clouds
245,La Union,PE,-5.4,-80.75,83.62,45,30,12.62,scattered clouds
246,Marathon,US,44.9,-89.7668,80.13,64,100,6.91,overcast clouds
247,Paamiut,GL,61.994,-49.6678,34.11,91,100,9.57,overcast clouds
248,Severo-Kurilsk,RU,50.6789,156.125,35.01,93,99,4.97,overcast clouds
249,Altamont,US,42.2068,-121.7372,44.89,62,75,10.36,broken clouds
250,Mahibadhoo,MV,3.7833,72.9667,84.04,77,78,19.77,broken clouds
251,Qaqortoq,GL,60.7167,-46.0333,37.22,84,90,5.21,overcast clouds
252,Abbeville,FR,50.1,1.8333,59.49,94,100,5.1,overcast clouds
253,Nurota,UZ,40.5614,65.6886,63.84,40,0,5.79,clear sky
254,Vanimo,PG,-2.6741,141.3028,78.28,91,71,5.77,broken clouds
255,Bluffton,US,32.2371,-80.8604,84.22,38,0,13.8,clear sky
256,Hami,CN,42.8,93.45,64.49,10,81,12.28,broken clouds
257,Husavik,IS,66.0449,-17.3389,33.06,97,100,14.25,snow
258,Xiantao,CN,30.3833,113.4,60.55,84,82,5.37,broken clouds
259,Morondava,MG,-20.2833,44.2833,73.67,71,0,11.86,clear sky
260,Pisco,PE,-13.7,-76.2167,66.25,82,100,4.61,mist
261,Toyooka,JP,35.5333,134.8333,59.54,89,100,5.55,light rain
262,Paraiso,CR,9.8383,-83.8656,77.86,69,93,3.13,overcast clouds
263,Letterkenny,IE,54.95,-7.7333,49.5,75,3,15.68,clear sky
264,Esperance,AU,-33.8667,121.9,64.24,38,6,14.5,clear sky
265,Rochester,US,43.1548,-77.6156,76.64,35,40,6.91,scattered clouds
266,Naze,JP,28.3667,129.4833,67.12,75,93,4.97,overcast clouds
267,Dombarovskiy,RU,50.7587,59.5386,48.31,83,100,20.42,light rain
268,Caboolture,AU,-27.0833,152.95,72.05,96,100,12.41,moderate rain
269,Dingle,PH,10.9995,122.6711,77.27,87,100,6.04,overcast clouds
270,Barabai,ID,-2.5833,115.3833,74.77,92,100,0.87,overcast clouds
271,Ust-Shonosha,RU,61.1531,41.343,38.14,64,100,3.38,overcast clouds
272,Shimoda,JP,34.6667,138.95,56.1,66,100,11.01,overcast clouds
273,Lasa,IT,46.6166,10.7002,63.48,78,98,4.36,overcast clouds
274,Bathsheba,BB,13.2167,-59.5167,84.81,70,20,16.11,few clouds
275,Santa Cruz,BO,-17.8,-63.1667,78.26,65,75,9.22,broken clouds
276,Cayenne,GF,4.9333,-52.3333,83.08,7,75,9.22,broken clouds
277,Kemijarvi,FI,66.7131,27.4306,45.21,76,99,11.23,overcast clouds
278,Srednekolymsk,RU,67.45,153.6833,20.61,82,100,3.4,overcast clouds
279,Pell City,US,33.5862,-86.2861,87.73,45,0,4.61,clear sky
280,Omalur,IN,11.741,78.0456,81.19,60,100,0.36,overcast clouds
281,Alofi,NU,-19.0595,-169.9187,76.89,78,75,10.36,broken clouds
282,Biltine,TD,14.5333,20.9167,90.36,10,14,3.2,few clouds
283,Burnie,AU,-41.0667,145.9167,51.94,80,100,7.9,overcast clouds
284,San Quintin,MX,30.4833,-115.95,64.92,58,7,21.23,clear sky
285,Buala,SB,-8.145,159.5921,81.41,82,100,5.75,light rain
286,North Bend,US,43.4065,-124.2243,57.24,79,75,9.22,broken clouds
287,Grafton,US,42.207,-71.6856,63.95,26,0,18.41,clear sky
288,Cidreira,BR,-30.1811,-50.2056,62.55,96,100,4.9,moderate rain
289,Aklavik,CA,68.2191,-135.0107,32.27,87,100,19.06,overcast clouds
290,Strezhevoy,RU,60.7333,77.5889,49.41,74,98,6.98,overcast clouds
291,Kavieng,PG,-2.5744,150.7967,82.81,76,86,15.46,overcast clouds
292,Glens Falls,US,43.3095,-73.644,76.98,23,0,9.22,clear sky
293,Anloga,GH,5.7947,0.8973,82.94,81,96,10.49,overcast clouds
294,Vostok,RU,46.4856,135.8833,48.2,49,78,4.27,broken clouds
295,Katobu,ID,-4.9408,122.5276,74.43,94,100,0.94,overcast clouds
296,Roald,NO,62.5833,6.1333,52.72,76,75,16.11,light rain
297,Aspindza,GE,41.5739,43.2483,40.78,91,92,2.77,overcast clouds
298,Egvekinot,RU,66.3167,-179.1667,29.73,100,100,4.72,overcast clouds
299,Lompoc,US,34.6391,-120.4579,71.56,53,0,23.02,clear sky
300,Makakilo City,US,21.3469,-158.0858,79.12,56,20,17.27,few clouds
301,Srivardhan,IN,18.0333,73.0167,81.84,81,99,8.21,light rain
302,Micheweni,TZ,-4.9667,39.8333,78.94,86,10,13.53,light rain
303,Laguna,US,38.421,-121.4238,64.02,41,20,4.61,few clouds
304,Necochea,AR,-38.5473,-58.7368,52.39,75,100,7.09,overcast clouds
305,Yulara,AU,-25.2406,130.9889,48.04,57,38,8.05,scattered clouds
306,Kamenka,RU,51.3223,42.7678,36.28,82,27,12.12,scattered clouds
307,Wanxian,CN,30.8039,108.3897,72.41,80,100,4.45,overcast clouds
308,Kajiado,KE,-1.8524,36.7768,61.43,88,48,12.1,scattered clouds
309,Sosnovo-Ozerskoye,RU,52.5249,111.5418,25.18,65,100,5.61,overcast clouds
310,Mondlo,ZA,-27.983,30.7177,51.67,76,72,4.76,broken clouds
311,Gaya,IN,24.7833,85.0,85.37,57,0,7.18,clear sky
312,Kawalu,ID,-7.3817,108.2082,74.75,97,98,1.32,overcast clouds
313,Cockburn Town,TC,21.4612,-71.1419,80.55,73,90,6.15,overcast clouds
314,Clyde River,CA,70.4692,-68.5914,28.63,64,0,5.75,clear sky
315,Panji,ID,-7.7253,114.0995,75.61,90,100,4.0,overcast clouds
316,Langarud,IR,37.197,50.1535,57.92,91,25,2.08,scattered clouds
317,Severo-Yeniseyskiy,RU,60.3725,93.0408,23.85,95,30,3.74,scattered clouds
318,Komsomolskiy,UZ,40.4272,71.7189,61.52,82,0,6.91,clear sky
319,Denia,ES,38.8408,0.1057,69.85,60,79,8.01,broken clouds
320,Nikolsk,RU,53.7189,46.0712,35.69,98,100,11.25,light rain
321,Nadym,RU,65.5333,72.5167,30.02,92,90,5.88,overcast clouds
322,San Juan,AR,-31.5375,-68.5364,72.88,42,80,13.91,broken clouds
323,Rundu,NA,-17.9333,19.7667,59.94,27,0,4.23,clear sky
324,Gejiu,CN,23.306,103.1635,55.92,93,31,2.17,scattered clouds
325,Urubicha,BO,-15.3833,-62.95,80.8,66,99,0.43,overcast clouds
326,Dragor,DK,55.5946,12.6664,57.97,89,100,13.8,overcast clouds
327,Mazagao,BR,-0.115,-51.2894,77.05,99,100,3.98,light rain
328,Naryan-Mar,RU,67.6713,53.087,36.77,81,99,16.62,overcast clouds
329,San Angelo,US,31.4638,-100.437,95.61,44,0,10.36,clear sky
330,Ust-Barguzin,RU,53.45,108.9833,23.59,91,7,1.14,clear sky
331,Swan River,CA,52.1058,-101.2676,53.49,62,100,19.57,overcast clouds
332,Gisborne,NZ,-38.6533,178.0042,54.54,70,97,17.83,overcast clouds
333,Requena,ES,39.4883,-1.1004,57.52,70,95,3.85,overcast clouds
334,Evanston,US,42.0411,-87.6901,90.39,60,40,14.97,scattered clouds
335,Tasiilaq,GL,65.6145,-37.6368,26.76,85,99,9.28,overcast clouds
336,Olivenca,BR,-9.5186,-37.1906,75.31,79,93,8.21,overcast clouds
337,Richards Bay,ZA,-28.783,32.0377,63.77,87,65,5.75,broken clouds
338,Poya,NC,-21.35,165.15,73.09,75,66,5.39,broken clouds
339,Immenstadt,DE,47.561,10.2199,62.17,67,100,5.55,overcast clouds
340,Sinnamary,GF,5.3833,-52.95,78.82,86,21,9.78,few clouds
341,Lebork,PL,54.5392,17.7501,63.95,53,100,12.88,light rain
342,Zheleznodorozhnyy,RU,55.7503,38.0042,50.61,57,100,12.37,overcast clouds
343,Brae,GB,60.3964,-1.353,48.07,84,100,19.64,overcast clouds
344,Kolobrzeg,PL,54.1757,15.5834,65.16,75,100,7.74,overcast clouds
345,Axim,GH,4.8699,-2.2405,80.8,83,100,6.69,overcast clouds
346,Laramie,US,41.3114,-105.5911,69.57,26,0,31.07,clear sky
347,Bueno Brandao,BR,-22.4408,-46.3508,59.85,78,41,0.81,scattered clouds
348,Big Spring,US,32.2504,-101.4787,88.25,58,40,19.57,scattered clouds
349,Talnakh,RU,69.4865,88.3972,13.87,99,99,5.68,overcast clouds
350,Ust-Uda,RU,54.1742,103.0304,29.88,64,9,4.41,clear sky
351,Lerwick,GB,60.1545,-1.1494,48.2,82,100,19.28,overcast clouds
352,Kelme,LT,55.6339,22.9342,50.02,77,90,7.9,overcast clouds
353,Mannarakkat,IN,10.9833,76.4667,74.89,96,100,1.32,light rain
354,Torbay,CA,47.6666,-52.7314,56.17,37,20,12.66,few clouds
355,Takoradi,GH,4.8845,-1.7554,81.14,82,100,7.38,overcast clouds
356,Luau,AO,-10.7073,22.2247,68.32,56,20,6.4,few clouds
357,Grand Gaube,MU,-20.0064,57.6608,76.37,79,23,1.01,few clouds
358,Sunrise Manor,US,36.2111,-115.0731,76.89,11,20,18.41,few clouds
359,Ugoofaaru,MV,5.6667,73.0,83.75,78,100,18.99,overcast clouds
360,Fort Nelson,CA,58.8053,-122.7002,45.99,49,20,0.0,few clouds
361,Eureka,US,40.8021,-124.1637,57.2,60,18,5.01,few clouds
362,Priiskovyy,RU,51.9333,116.6333,30.69,79,98,6.29,overcast clouds
363,Inongo,CD,-1.95,18.2667,76.82,78,100,3.96,light rain
364,Irbit,RU,57.6705,63.071,58.98,42,100,11.74,overcast clouds
365,Portland,US,45.5234,-122.6762,61.56,50,75,4.61,broken clouds
366,Qui Nhon,VN,13.7667,109.2333,77.79,89,33,5.01,scattered clouds
367,Acarau,BR,-2.8856,-40.12,77.23,87,99,9.6,overcast clouds
368,Pinheiro Machado,BR,-31.5783,-53.3811,58.05,96,99,1.9,overcast clouds
369,Petropavlovka,RU,50.6114,105.3196,32.86,49,100,4.32,overcast clouds
370,High Level,CA,58.5169,-117.136,35.71,64,100,4.61,overcast clouds
371,Namibe,AO,-15.1961,12.1522,74.75,56,1,7.11,clear sky
372,Kalmunai,LK,7.4167,81.8167,80.2,82,100,6.29,overcast clouds
373,Narsaq,GL,60.9167,-46.05,50.22,79,51,5.41,broken clouds
374,Bairiki,KI,1.3292,172.9752,82.4,78,20,8.05,few clouds
375,Champerico,GT,14.3,-91.9167,95.54,66,29,10.78,scattered clouds
376,Antofagasta,CL,-23.65,-70.4,63.68,74,1,4.34,clear sky
377,Velsk,RU,61.0701,42.0983,36.72,71,97,3.94,overcast clouds
378,Saint-Joseph,RE,-21.3667,55.6167,71.98,79,6,3.69,clear sky
379,Karaton,ID,-6.3424,106.1045,76.53,94,87,2.1,light rain
380,Baherden,TM,38.4362,57.4316,68.67,55,100,9.24,light rain
381,Cabo San Lucas,MX,22.8909,-109.9124,89.62,32,0,12.66,clear sky
382,Bosaso,SO,11.2842,49.1816,82.2,58,17,4.47,few clouds
383,Machiques,VE,10.0644,-72.545,85.26,74,100,1.34,overcast clouds
384,Challapata,BO,-18.9,-66.7667,52.81,17,0,4.68,clear sky
385,Abashiri,JP,44.0213,144.2697,43.95,71,0,6.67,clear sky
386,Samarai,PG,-10.6167,150.6667,82.6,82,100,14.2,overcast clouds
387,Coihaique,CL,-45.5752,-72.0662,54.21,58,20,3.44,few clouds
388,Chama,CH,47.1821,8.4636,64.62,72,100,2.3,overcast clouds
389,Huangzhou,CN,30.45,114.8,64.4,79,100,4.0,overcast clouds
390,Calama,CL,-22.4667,-68.9333,73.89,9,0,24.16,clear sky
391,North Battleford,CA,52.7834,-108.2847,51.4,57,75,14.97,broken clouds
392,Tuy Hoa,VN,13.0833,109.3,76.48,89,28,3.96,scattered clouds
393,Trairi,BR,-3.2778,-39.2689,74.93,88,100,7.09,overcast clouds
394,Kungurtug,RU,50.5994,97.5228,29.91,58,100,3.38,light snow
395,Moerai,PF,-22.4333,-151.3333,78.94,78,11,2.08,light rain
396,Beni,CD,0.5,29.4667,63.46,93,60,2.82,light rain
397,Volovo,UA,48.5246,23.5056,47.34,93,39,3.83,scattered clouds
398,Caravelas,BR,-17.7125,-39.2481,72.64,82,4,5.68,clear sky
399,Sussex,US,41.1834,-74.6663,74.61,26,0,11.5,clear sky
400,Kiunga,PG,-6.1219,141.2906,74.95,99,100,2.3,light rain
401,Alyangula,AU,-13.8483,136.4192,78.67,89,100,5.75,overcast clouds
402,Antigonish,CA,45.6169,-61.9986,53.78,59,0,8.66,clear sky
403,Vardo,NO,70.3705,31.1107,37.38,93,75,11.5,broken clouds
404,Sabha,LY,27.0377,14.4283,80.55,19,65,11.14,broken clouds
405,Zonguldak,TR,41.25,31.8333,41.59,82,2,3.58,clear sky
406,Vitim,RU,59.4511,112.5578,25.86,90,69,1.48,broken clouds
407,Port Lincoln,AU,-34.7333,135.8667,57.56,67,0,6.06,clear sky
408,Madang,PG,-5.2246,145.7966,77.47,92,55,2.26,broken clouds
409,Storm Lake,US,42.6411,-95.2097,74.44,35,100,18.41,overcast clouds
410,Longyearbyen,SJ,78.2186,15.6401,21.04,58,20,5.75,few clouds
411,Ancud,CL,-41.8697,-73.8203,52.59,76,55,3.06,broken clouds
412,Tuatapere,NZ,-46.1333,167.6833,44.06,81,8,4.76,clear sky
413,Moberly,US,39.4184,-92.4382,89.92,57,40,13.8,scattered clouds
414,Alice Springs,AU,-23.7,133.8833,42.35,75,0,0.0,clear sky
415,Baiima,SL,8.1,-11.85,78.31,81,99,4.63,overcast clouds
416,Cacoal,BR,-11.4386,-61.4472,80.98,81,54,2.13,broken clouds
417,Pa Sang,TH,18.5262,98.9394,80.02,61,100,1.45,light rain
418,Antalaha,MG,-14.9003,50.2788,72.54,91,11,3.94,few clouds
419,Kaga,JP,36.2997,136.3145,55.33,88,75,3.44,moderate rain
420,Phetchaburi,TH,12.9667,99.5833,74.75,93,99,2.42,light rain
421,Fermo,IT,43.1647,13.7233,63.86,74,0,5.66,clear sky
422,Biak,ID,-0.9131,122.8766,76.1,86,100,1.34,light rain
423,Ngunguru,NZ,-35.6167,174.5,56.03,69,0,10.74,clear sky
424,Quatre Cocos,MU,-20.2078,57.7625,76.08,82,78,9.66,light rain
425,Sitka,US,57.0531,-135.33,44.49,70,100,9.22,light rain
426,Minsk,BY,53.9,27.5667,42.55,63,99,3.33,overcast clouds
427,Ixtapa,MX,20.7,-105.2,83.43,58,40,10.36,scattered clouds
428,Arman,RU,59.7,150.1667,34.02,99,100,6.62,light snow
429,Togur,RU,58.3631,82.8265,41.32,60,1,5.55,clear sky
430,Tabou,CI,4.423,-7.3528,80.38,83,91,6.38,overcast clouds
431,Cap Malheureux,MU,-19.9842,57.6142,76.46,79,20,1.01,few clouds
432,Bafut,CM,6.0833,10.1,66.47,95,99,0.94,overcast clouds
433,Baisha,CN,26.5222,110.9311,62.51,97,100,1.36,overcast clouds
434,Bitung,ID,1.4451,125.1824,76.05,87,100,8.46,overcast clouds
435,Porterville,US,36.0652,-119.0168,66.51,31,40,5.46,scattered clouds
436,Mopti,ML,14.6667,-4.0,92.03,5,68,6.51,broken clouds
437,Aksu,CN,41.1231,80.2644,76.06,19,84,7.9,broken clouds
438,Luanda,AO,-8.8368,13.2343,78.8,83,75,4.61,broken clouds
439,Serenje,ZM,-13.2325,30.2352,58.89,67,6,3.49,clear sky
440,Bolshaya Martynovka,RU,47.271,41.6679,44.82,73,67,9.17,broken clouds
441,Palmer,US,42.1584,-72.3287,69.4,22,20,12.66,few clouds
442,Cuamba,MZ,-14.8031,36.5372,65.91,78,67,2.89,broken clouds
443,Mount Gambier,AU,-37.8333,140.7667,39.11,100,100,0.0,fog
444,Geraldton,AU,-28.7667,114.6,61.21,88,40,3.44,scattered clouds
445,Seoul,KR,37.5683,126.9778,58.6,61,0,4.61,clear sky
446,Ferme-Neuve,CA,46.7001,-75.4493,74.03,26,100,9.53,overcast clouds
447,Teya,RU,60.3778,92.6267,26.29,97,24,3.31,few clouds
448,Hervey Bay,AU,-25.2986,152.8535,69.03,95,100,3.0,light rain
449,Casas Grandes,MX,30.3667,-107.95,88.45,10,18,20.38,few clouds
450,Baruun-Urt,MN,46.6806,113.2792,28.85,53,54,13.2,broken clouds
451,Cardston,CA,49.2,-113.3019,53.89,28,95,19.57,overcast clouds
452,Nelson Bay,AU,-32.7167,152.15,69.01,81,100,1.01,overcast clouds
453,Pringsewu,ID,-5.3582,104.9744,75.74,98,79,3.24,broken clouds
454,San Carlos De Bariloche,AR,-41.1456,-71.3082,56.95,26,0,9.22,clear sky
455,Salta,AR,-24.7859,-65.4117,73.99,56,20,8.05,few clouds
456,Holme,DK,56.1138,10.1725,53.17,83,58,10.92,broken clouds
457,Sergeyevka,KZ,53.88,67.4158,52.03,77,100,15.48,light rain
458,Filingue,NE,14.3521,3.3168,94.06,21,50,7.4,scattered clouds
459,Arona,ES,28.0996,-16.681,68.99,76,40,2.3,scattered clouds
460,Fairbanks,US,64.8378,-147.7164,37.6,88,100,13.8,light snow
461,Altay,CN,47.8667,88.1167,47.75,25,62,8.93,broken clouds
462,Mareeba,AU,-17.0,145.4333,68.43,95,100,3.69,overcast clouds
463,Whitehorse,CA,60.7161,-135.0538,43.11,80,100,8.05,light rain
464,Tharad,IN,24.3961,71.6267,86.0,55,18,11.18,few clouds
465,Hailar,CN,49.2,119.7,34.03,49,98,6.49,overcast clouds
466,Gunjur,GM,13.2019,-16.7339,75.27,78,0,10.36,clear sky
467,Viedma,AR,-40.8135,-62.9967,55.4,64,1,10.36,clear sky
468,Aksarka,RU,66.5606,67.7975,25.14,99,87,7.9,overcast clouds
469,Ballina,AU,-28.8667,153.5667,69.76,64,75,12.66,broken clouds
470,Akyab,MM,20.15,92.9,78.42,87,100,2.35,overcast clouds
471,Saint-Augustin,CA,51.226,-58.6502,58.95,50,96,14.5,overcast clouds
472,Mosquera,CO,4.7059,-74.2302,60.89,82,75,6.91,broken clouds
473,Cassia,BR,-20.5831,-46.9219,70.68,55,60,3.18,broken clouds
474,Porangatu,BR,-13.4408,-49.1486,81.21,42,38,1.25,scattered clouds
475,Hobyo,SO,5.3505,48.5268,82.53,73,95,22.93,overcast clouds
476,Durazno,UY,-33.4131,-56.5006,64.35,77,75,4.61,broken clouds
477,Nacogdoches,US,31.6002,-94.6335,90.34,59,0,7.14,clear sky
478,Vestmannaeyjar,IS,63.4427,-20.2734,46.06,69,64,9.75,broken clouds
479,Zambezi,ZM,-13.5432,23.1047,64.87,59,11,4.83,few clouds
480,Beloha,MG,-25.1667,45.05,64.49,89,12,2.95,few clouds
481,Jumla,NP,29.2747,82.1838,56.48,88,95,0.38,overcast clouds
482,Huarmey,PE,-10.0681,-78.1522,69.31,75,5,9.91,clear sky
483,Caceres,ES,39.522,-6.3748,72.34,38,50,2.53,scattered clouds
484,Bambous Virieux,MU,-20.3428,57.7575,76.21,94,20,3.44,light rain
485,Jorochito,BO,-18.05,-63.4333,75.52,84,70,0.83,broken clouds
486,Mount Isa,AU,-20.7333,139.5,64.17,100,100,8.05,overcast clouds
487,Bonfim,BR,3.0833,-59.95,87.71,56,75,5.66,broken clouds
488,Jalu,LY,29.0331,21.5482,72.25,31,74,12.82,broken clouds
489,Hurricane,US,37.1753,-113.2899,70.7,10,100,20.0,overcast clouds
490,Panaba,MX,21.2833,-88.2667,93.4,42,1,19.15,clear sky
491,Port Hedland,AU,-20.3167,118.5667,60.85,29,52,9.22,broken clouds
492,Flinders,AU,-34.5833,150.8552,62.38,88,100,4.0,light rain
493,Omboue,GA,-1.5746,9.2618,78.22,90,99,5.55,light rain
494,Straumen,NO,63.8709,11.2999,50.0,86,98,1.21,light rain
495,Kununurra,AU,-15.7667,128.7333,60.78,82,38,0.0,scattered clouds
496,Genhe,CN,50.7833,121.5167,27.73,69,1,1.7,clear sky
497,Statesboro,US,32.4488,-81.7832,82.2,24,0,9.22,clear sky
498,Honiara,SB,-9.4333,159.95,82.45,77,98,5.57,overcast clouds
499,Klyuchi,RU,52.2667,79.1667,47.98,37,97,9.04,overcast clouds
500,Bar Harbor,US,44.3876,-68.2039,69.94,39,0,9.22,clear sky
501,Gayny,RU,60.3071,54.3241,50.32,77,100,7.61,overcast clouds
502,Rio Gallegos,AR,-51.6226,-69.2181,50.05,40,0,4.61,clear sky
503,Trelew,AR,-43.249,-65.3051,54.3,62,0,10.47,clear sky
504,Atar,MR,20.5169,-13.0499,92.68,12,35,8.12,scattered clouds
505,Marsa Matruh,EG,31.3525,27.2453,64.27,77,22,1.54,few clouds
506,Capim Grosso,BR,-11.3811,-40.0128,76.23,61,82,9.1,broken clouds
507,Ponta Delgada,PT,37.7333,-25.6667,68.5,77,20,11.5,few clouds
508,Elko,US,41.0002,-115.5012,42.64,51,74,13.0,broken clouds
509,College,US,64.8569,-147.8028,37.58,88,100,13.8,light snow
510,Wendo,ET,6.6,38.4167,59.94,82,33,4.92,scattered clouds
511,Hamilton,US,39.1834,-84.5333,86.63,57,40,11.5,scattered clouds
512,Shelburne,CA,44.0787,-80.2041,74.19,50,100,11.59,overcast clouds
513,Stony Mountain,CA,50.0864,-97.2196,69.82,34,40,18.41,scattered clouds
514,Kautokeino,NO,69.0125,23.0412,35.02,100,100,1.14,light snow
515,Maniitsoq,GL,65.4167,-52.9,32.18,72,60,7.92,broken clouds
516,Plettenberg Bay,ZA,-34.0527,23.3716,58.93,77,47,7.38,scattered clouds
517,Pangnirtung,CA,66.1451,-65.7125,30.2,86,20,9.22,few clouds
518,Muros,ES,42.7762,-9.0603,58.64,82,32,5.88,scattered clouds
519,Porirua,NZ,-41.1333,174.85,53.02,76,92,11.77,overcast clouds
520,Uglovskoye,RU,51.3557,80.1942,49.53,33,96,13.15,overcast clouds
521,Bansi,IN,27.1833,82.9333,86.11,47,60,8.12,broken clouds
522,Pirovskoye,RU,57.6267,92.2658,32.16,54,2,0.85,clear sky
523,San Jose De Guanipa,VE,8.8872,-64.1651,89.4,40,17,12.15,few clouds
524,Chaman,PK,30.9236,66.4512,75.96,16,0,2.28,clear sky
525,Ca Mau,VN,9.1769,105.15,79.3,91,87,3.58,overcast clouds
526,Tabas,IR,33.5959,56.9244,77.22,14,0,4.61,clear sky
527,Serra Talhada,BR,-7.9919,-38.2983,79.86,55,99,14.2,overcast clouds
528,Korsakov,RU,46.6328,142.7813,31.84,85,0,3.69,clear sky
529,Clarksdale,US,34.2001,-90.5709,91.38,52,20,13.8,few clouds
530,San Mateo Del Mar,MX,16.2,-95.0,86.52,73,44,18.23,scattered clouds
531,Mackay,AU,-21.15,149.2,71.69,94,100,9.22,light intensity shower rain
532,Nassjo,SE,57.6531,14.6968,52.72,87,100,14.25,overcast clouds
533,Rasskazovo,RU,52.6714,41.9033,37.42,97,100,9.08,light rain
534,Gashua,NG,12.871,11.0482,93.38,29,98,7.67,overcast clouds
535,Khorixas,NA,-20.3667,14.9667,71.44,21,0,5.21,clear sky
536,Hambantota,LK,6.1241,81.1185,81.28,79,99,22.46,overcast clouds
537,Bondo,CD,3.8146,23.6866,70.84,98,90,2.21,light rain
538,Mercedes,AR,-34.6515,-59.4307,65.03,69,79,5.55,broken clouds
539,Coahuayana,MX,18.7333,-103.6833,90.61,45,94,7.76,overcast clouds
540,Puerto Cabello,VE,10.4731,-68.0125,80.67,81,100,8.5,overcast clouds
541,Vernon,CA,50.2581,-119.2691,60.22,40,100,4.61,overcast clouds
542,Skjervoy,NO,70.0311,20.9714,37.4,89,100,8.81,overcast clouds
543,Cairns,AU,-16.9167,145.7667,73.06,97,100,8.05,light intensity shower rain
544,Sattahip,TH,12.6664,100.9007,84.97,89,20,2.3,few clouds
545,Ossora,RU,59.2353,163.0719,33.87,98,99,2.55,overcast clouds
546,Usinsk,RU,65.9939,57.5281,29.46,78,20,6.78,few clouds
547,Maraa,BR,-1.8333,-65.3667,80.04,94,71,2.64,light rain
548,Little Rock,US,34.7465,-92.2896,91.8,62,40,12.66,scattered clouds
549,Ulaangom,MN,49.9811,92.0667,36.32,63,0,3.62,clear sky
550,Lakes Entrance,AU,-37.8811,147.981,53.24,84,100,4.14,overcast clouds
551,Nanakuli,US,21.3906,-158.1547,80.55,60,20,13.8,few clouds
552,Merauke,ID,-8.4667,140.3333,77.74,91,99,4.18,overcast clouds
553,Turkistan,KZ,43.0,68.0,66.07,52,2,9.44,clear sky
554,Sarakhs,IR,36.5449,61.1577,66.34,63,5,4.61,clear sky
555,Mrakovo,RU,52.7161,56.6244,48.47,93,100,5.82,light rain
556,Xining,CN,36.6167,101.7667,48.74,76,98,1.81,overcast clouds
557,Mbandaka,CD,0.0487,18.2603,74.79,86,42,2.93,scattered clouds
558,Marzuq,YE,14.4,46.4667,74.77,48,7,4.7,clear sky
559,Panjab,AF,34.388,67.0233,54.61,41,40,4.09,scattered clouds
560,Luena,AO,-11.7833,19.9167,61.84,62,75,4.36,broken clouds
561,Katima Mulilo,NA,-17.5,24.2667,64.69,37,0,2.73,clear sky
562,Ulladulla,AU,-35.35,150.4667,56.3,79,100,5.97,overcast clouds
563,Baykit,RU,61.67,96.37,28.6,97,24,1.86,few clouds
564,Santa Isabel Do Rio Negro,BR,-0.4139,-65.0192,83.03,82,61,2.84,light rain
565,Korla,CN,41.7597,86.1469,73.85,26,55,13.49,broken clouds
566,Leshukonskoye,RU,64.8989,45.7622,36.46,79,10,5.17,clear sky
567,Katsuura,JP,35.1333,140.3,58.53,85,100,8.57,overcast clouds
568,Kutum,SD,14.2,24.6667,80.58,10,53,8.19,broken clouds
569,Goma,CD,-1.6792,29.2228,62.98,90,78,2.93,light rain
570,Raghogarh,IN,24.45,77.2,89.49,25,2,8.34,clear sky
571,Guijalo,PH,13.7373,123.868,78.42,87,64,2.35,broken clouds
572,Miraflores,MX,19.2167,-98.8083,86.76,14,54,8.46,broken clouds
573,Diamantina,BR,-18.2494,-43.6003,60.66,57,4,2.01,clear sky
574,Pedernales,DO,18.0384,-71.744,85.42,58,38,7.29,scattered clouds
575,Poitiers,FR,46.5833,0.3333,70.21,49,0,3.44,clear sky
576,Pilot Butte,CA,50.4668,-104.4178,49.73,72,75,13.8,broken clouds
577,Vilhena,BR,-12.7406,-60.1458,84.42,61,20,9.22,few clouds
578,Esil,KZ,51.9556,66.4042,54.39,82,76,11.05,broken clouds
579,Manavalakurichi,IN,8.1333,77.3,81.36,83,100,20.33,overcast clouds
580,Carauari,BR,-4.8828,-66.8958,80.4,85,83,4.41,broken clouds
581,Lazo,RU,43.3817,133.9014,48.42,31,100,1.36,overcast clouds
582,Bocas Del Toro,PA,9.3333,-82.25,83.75,67,100,7.56,overcast clouds
583,Minatitlan,MX,17.9833,-94.5167,96.57,46,7,18.59,clear sky
584,Meulaboh,ID,4.1363,96.1285,77.23,91,100,4.29,overcast clouds
585,Porbandar,IN,21.6422,69.6093,82.58,78,13,13.31,few clouds
586,Kumla,SE,59.1277,15.1434,55.35,94,75,18.41,light rain
587,Along,IN,28.1667,94.7667,70.34,99,100,1.66,overcast clouds
588,Healesville,AU,-37.65,145.5167,59.45,78,100,2.28,light rain
589,Saint Pete Beach,US,27.7253,-82.7412,87.24,49,0,11.5,clear sky
590,Anadyr,RU,64.75,177.4833,41.5,70,40,6.71,scattered clouds
591,Wagar,SD,16.1525,36.2032,87.66,13,5,21.5,clear sky
592,Grafenhainichen,DE,51.7333,12.45,70.25,72,99,7.25,overcast clouds
593,Cochrane,CA,51.1834,-114.4687,51.62,42,100,20.71,light rain
594,Balakhninskiy,RU,58.0106,114.2769,25.09,85,88,3.36,overcast clouds
595,Zverinogolovskoye,RU,54.4586,64.8542,52.93,79,100,17.63,light rain
596,Pacific Grove,US,36.6177,-121.9166,62.02,61,40,12.66,scattered clouds
597,Tulum,MX,20.2167,-87.4667,86.76,56,5,8.32,clear sky
598,El Alto,PE,-4.2714,-81.2147,74.86,75,56,12.3,broken clouds
599,Padang,ID,-0.9492,100.3543,78.78,83,100,4.9,overcast clouds
600,Manono,CD,-7.3,27.4167,69.3,62,24,3.36,few clouds
601,Praia Da Vitoria,PT,38.7333,-27.0667,68.25,73,75,13.02,broken clouds
602,Shingu,JP,33.7333,135.9833,62.67,87,100,8.46,overcast clouds
603,Tefe,BR,-3.3542,-64.7114,93.31,55,20,5.75,few clouds
604,Cooma,AU,-36.2333,149.1333,46.17,100,100,0.0,overcast clouds
605,Sao Joao Da Barra,BR,-21.6403,-41.0511,73.49,86,9,8.68,clear sky
606,Bari,IT,41.1177,16.8512,64.87,74,0,5.75,clear sky
607,Trzcianka,PL,53.0406,16.4563,59.56,65,100,8.93,overcast clouds
608,Moussoro,TD,13.6408,16.4901,92.95,33,89,9.73,overcast clouds
609,Shakawe,BW,-18.3667,21.85,60.04,24,0,3.31,clear sky
610,Chapais,CA,49.7834,-74.8492,74.98,27,98,13.69,overcast clouds
611,Erenhot,CN,43.6475,111.9767,38.62,32,0,12.77,clear sky
612,Beyneu,KZ,45.3167,55.2,57.24,76,0,14.29,clear sky
613,Tahta,EG,26.7693,31.5021,79.92,17,8,7.11,clear sky
614,Awbari,LY,26.5921,12.7805,80.01,14,32,6.8,scattered clouds
615,Mayumba,GA,-3.432,10.6554,78.28,93,83,5.06,broken clouds
616,Yenangyaung,MM,20.4667,94.8833,81.05,76,97,8.25,overcast clouds
617,Guangyuan,CN,32.442,105.823,65.1,91,100,5.23,overcast clouds
618,Hofn,IS,64.2539,-15.2082,41.27,60,100,21.88,overcast clouds
619,Salalah,OM,17.0151,54.0924,82.49,83,0,3.44,clear sky
620,Pauini,BR,-7.7136,-66.9764,83.35,71,86,0.89,overcast clouds
621,Belaya Gora,RU,68.5333,146.4167,16.29,83,24,5.1,few clouds
622,Burgeo,CA,47.6167,-57.6152,46.18,55,1,7.83,clear sky
623,Tigil,RU,57.8,158.6667,42.03,76,5,4.07,clear sky
624,Calabozo,VE,8.9242,-67.4293,89.11,48,99,3.24,overcast clouds
625,Kamaishi,JP,39.2667,141.8833,54.66,52,58,5.57,broken clouds
626,Ellisras,ZA,-23.6649,27.7443,60.57,59,0,2.46,clear sky
627,Shellbrook,CA,53.2168,-106.4011,52.83,46,100,11.56,overcast clouds
628,Bud,US,39.447,-86.1758,87.21,64,69,8.93,broken clouds
629,Santiago,CL,-33.4569,-70.6483,77.29,36,100,13.8,haze
630,Khani,GE,41.9563,42.9566,44.17,96,86,1.3,overcast clouds
631,Meylan,FR,45.2199,5.7901,66.29,67,68,3.38,broken clouds
632,Labuan,MY,5.2767,115.2417,80.96,94,20,0.0,few clouds
633,Asau,RO,46.4333,26.4,49.95,98,76,3.02,broken clouds
634,Kankan,GN,10.3854,-9.3057,88.07,32,21,3.13,few clouds
635,Kuytun,RU,54.3419,101.5036,30.85,49,40,4.34,scattered clouds
636,Malyye Derbety,RU,47.9547,44.6808,44.1,61,9,10.42,clear sky
637,Cootamundra,AU,-34.65,148.0333,58.95,69,100,17.11,light rain
638,Natchitoches,US,31.7668,-93.1335,92.25,51,0,0.0,clear sky
639,Monopoli,IT,40.9559,17.2896,66.72,86,8,5.82,clear sky
640,Manokwari,ID,-0.8667,134.0833,79.16,68,64,4.43,broken clouds
641,San Policarpo,PH,12.1791,125.5072,80.42,83,77,6.64,broken clouds
642,Nome,US,64.5011,-165.4064,31.15,93,100,10.36,light snow
643,Mahbubnagar,IN,16.7333,77.9833,85.62,49,100,5.82,overcast clouds
644,Araguaina,BR,-7.1911,-48.2072,80.4,58,91,3.06,overcast clouds
645,Steinbach,DE,50.1667,8.5667,69.31,59,0,6.91,clear sky
646,Zhigansk,RU,66.7697,123.3711,23.34,96,100,8.55,light snow
647,Leningradskiy,RU,69.3833,178.4167,34.2,88,97,4.7,overcast clouds
648,Agua Verde,MX,22.9,-106.05,86.09,61,7,12.26,clear sky
649,Dwarka,IN,22.2394,68.9678,82.72,77,33,12.86,scattered clouds
650,Bumba,CD,2.1833,22.4667,71.6,97,97,1.72,light rain
651,Port Augusta,AU,-32.5,137.7667,53.69,73,1,6.76,clear sky
652,Armeria,MX,18.9333,-103.9667,87.64,51,79,7.87,broken clouds
653,Mbulu,TZ,-3.85,35.5333,58.32,91,46,8.99,scattered clouds
654,Guaruja,BR,-23.9931,-46.2564,75.88,26,20,8.05,few clouds
655,Pahrump,US,36.2083,-115.9839,68.05,15,66,14.0,broken clouds
656,Ensenada,MX,31.8667,-116.6167,63.95,71,58,17.29,broken clouds
657,Raga,SS,8.4596,25.678,82.26,47,69,4.9,broken clouds
658,Voh,NC,-20.9667,164.7,72.95,77,99,5.84,overcast clouds
659,Mayo,US,38.8876,-76.5119,75.31,33,0,12.66,clear sky
660,Colombia,CU,20.9881,-77.4297,84.42,60,88,12.64,moderate rain
661,Bamako,ML,12.65,-8.0,91.81,40,0,5.75,clear sky
662,Kavali,IN,14.9167,79.9833,76.89,84,100,31.68,moderate rain
663,Kozhevnikovo,RU,56.2589,83.9714,38.97,56,0,5.84,clear sky
664,Havelock,US,34.8791,-76.9013,66.02,67,95,10.0,overcast clouds
665,Ha Tinh,VN,18.3333,105.9,79.32,80,100,2.8,overcast clouds
666,Rosetown,CA,51.5501,-108.0014,53.58,37,100,12.66,overcast clouds
667,Bela,IN,25.9333,81.9833,90.05,35,4,8.5,clear sky
668,Molina,CL,-35.1167,-71.2833,68.38,65,91,6.91,haze
669,Tatarsk,RU,55.219,75.9828,49.28,35,95,10.27,overcast clouds
670,Podor,MR,16.6527,-14.9587,89.35,28,7,17.87,clear sky
671,Collie,AU,-33.3667,116.15,51.67,96,67,1.03,broken clouds
672,Presidencia Roque Saenz Pena,AR,-26.7852,-60.4388,68.97,69,16,3.71,few clouds
673,Tamandare,BR,-8.7597,-35.1047,77.77,80,97,4.85,overcast clouds
674,Mitu,CO,1.1983,-70.1733,79.52,95,100,0.58,moderate rain
675,Kirakira,SB,-10.4544,161.9205,83.14,81,100,7.49,overcast clouds
676,Bereda,ES,43.2686,-7.5406,51.57,90,11,1.21,few clouds
677,Uarini,BR,-2.99,-65.1083,83.41,77,22,3.71,few clouds
678,Fangshan,CN,39.6983,115.9925,55.24,77,100,3.13,overcast clouds
679,Inuvik,CA,68.3499,-133.7218,32.76,74,75,14.97,broken clouds
680,Saint-Leu,RE,-21.15,55.2833,72.46,82,4,4.79,clear sky
681,Nyurba,RU,63.2842,118.3319,29.88,91,33,3.94,scattered clouds
682,Hue,VN,16.4667,107.6,77.11,94,40,1.14,scattered clouds
683,Sibolga,ID,1.7427,98.7792,77.7,89,100,3.67,overcast clouds
684,Kingsville,US,27.5159,-97.8561,91.58,62,40,23.02,scattered clouds
685,Orapa,BW,-21.2833,25.3667,60.58,17,0,4.03,clear sky
686,Spanish Fork,US,40.115,-111.6549,65.7,26,40,11.5,scattered clouds
687,Nioki,CD,-2.7167,17.6833,78.22,77,100,3.11,overcast clouds
688,Manakara,MG,-22.1333,48.0167,68.38,76,0,2.51,clear sky
689,Tucuman,AR,-26.8241,-65.2226,78.8,47,0,4.61,clear sky
690,Gloversville,US,43.0528,-74.3438,74.71,46,0,8.05,clear sky
691,Illapel,CL,-31.6308,-71.1653,73.47,43,100,4.43,overcast clouds
692,Port-Gentil,GA,-0.7193,8.7815,80.56,89,75,0.0,broken clouds
693,Sparks,US,39.5349,-119.7527,46.13,47,75,19.57,broken clouds
694,Marsabit,KE,2.3284,37.9899,70.92,53,20,12.86,few clouds
695,General Roca,AR,-39.0333,-67.5833,60.58,24,65,9.98,broken clouds
696,Huangyan,CN,28.6478,121.2594,64.98,98,100,3.22,light rain
697,Aleksandrov Gay,RU,50.147,48.5704,41.47,62,2,13.53,clear sky
698,Pilar,BR,-9.5972,-35.9567,80.53,88,35,3.89,scattered clouds
699,Zhuhai,CN,22.2769,113.5678,76.86,100,40,10.36,shower rain
700,Ostersund,SE,63.1792,14.6357,43.25,93,75,5.75,broken clouds
701,Lufilufi,WS,-13.8745,-171.5986,83.98,70,16,16.13,few clouds
702,Stromness,GB,58.965,-3.296,48.16,87,100,10.0,light rain
703,Quelimane,MZ,-17.8786,36.8883,73.35,88,0,0.0,clear sky
704,Monteagudo,BO,-19.8167,-63.9833,65.8,85,94,3.6,overcast clouds
705,Bonoua,CI,5.2741,-3.595,82.02,89,100,4.97,light rain
706,Preston,GB,53.7667,-2.7167,56.93,69,97,4.0,overcast clouds
707,Mo I Rana,NO,66.3128,14.1428,43.32,94,75,3.44,light rain
708,San Jose Temascatio,MX,20.6833,-101.2667,93.25,12,64,18.05,broken clouds
709,Sassandra,CI,4.95,-6.0833,80.01,86,75,7.56,light rain
710,Benalla,AU,-36.55,145.9833,49.86,69,100,4.36,light rain
711,Oktyabrskoye,RU,43.0645,44.7417,48.34,93,100,8.95,light rain
712,Dargaville,NZ,-35.9333,173.8833,54.99,62,0,6.85,clear sky
713,Dzaoudzi,YT,-12.7887,45.2699,80.49,74,20,13.8,few clouds
714,Todos Santos,MX,23.45,-110.2167,77.14,44,0,7.52,clear sky
715,Nalut,LY,30.3333,10.85,65.73,49,94,22.12,overcast clouds
716,Oussouye,SN,12.485,-16.5469,82.58,64,3,11.83,clear sky
717,Ouesso,CG,1.6136,16.0517,76.64,77,45,2.57,scattered clouds
718,Laichingen,DE,48.4894,9.6861,61.72,82,100,3.04,overcast clouds
719,Kumbo,CM,6.2,10.6667,61.47,91,67,3.22,broken clouds

